[
  {
    "city": "Алматы",
    "geometry": {
      "coordinates": [
        76.921537,
        43.253550
      ],
      "type": "Point"
    },
    "name": "Sulpak",
    "redirect_count": 1,
    "street": "Толе Би ул.,113",
    "tel": "+7 (727) 233–30–00",
    "url": "www.sulpak.kz",
    "url_real": "https://www.sulpak.kz/g/holodilnik_bosch_kgn36vl15r",
    "url_redirect": "https://www.sulpak.kz/g/holodilnik_bosch_kgn36vl15r"
  },
  {
    "city": "Алматы",
    "geometry": {
      "coordinates": [
        76.948131,
        43.275473
      ],
      "type": "Point"
    },
    "name": "Sulpak",
    "redirect_count": 1,
    "street": "пр. Суюнбая 2, корпус 9, ТЦ 'Мерей'",
    "tel": "+7 (727) 233–30–00",
    "url": "www.sulpak.kz",
    "url_real": "https://naturecool.ru/api/redirect/shop?shop_id=592f1b5f6d1a860a88379a73",
    "url_redirect": "https://www.sulpak.kz/g/holodilnik_bosch_kgn36vl15r"
  },
  {
    "city": "Алматы",
    "geometry": {
      "coordinates": [
        76.958198,
        43.235536
      ],
      "type": "Point"
    },
  "name": "Sulpak",
    "redirect_count": 1,
    "street": "Самал 2-й микрорайон,111,DOSTYKPLAZA",
    "tel": "+7 (727) 233–30–00",
    "url": "www.sulpak.kz",
    "url_real": "https://www.sulpak.kz/g/holodilnik_bosch_kgn36vl15r",
    "url_redirect": "https://www.sulpak.kz/g/holodilnik_bosch_kgn36vl15r"
    },
  {
    "city": "Алматы",
    "geometry": {
      "coordinates": [
        76.900815,
        43.252440
      ],
      "type": "Point"
    },
    "name": "Sulpak",
    "redirect_count": 1,
    "street": "Толе Би,187",
    "tel": "+7 (727) 233–30–00",
    "url": "www.sulpak.kz",
    "url_real": "https://www.sulpak.kz/g/holodilnik_bosch_kgn36vl15r",
    "url_redirect": "https://www.sulpak.kz/g/holodilnik_bosch_kgn36vl15r"
  },
  {
    "city": "Алматы",
    "geometry": {
      "coordinates": [
        76.905288,
        43.240391
      ],
      "type": "Point"
    },
    "name": "Sulpak",
    "redirect_count": 1,
    "street": "пр. Абая, д. 109В (109/3) ТРЦ 'Globus'",
    "tel": "+7 (727) 233–30–00",
    "url": "www.sulpak.kz",
    "url_real": "https://www.sulpak.kz/g/holodilnik_bosch_kgn36vl15r",
    "url_redirect": "https://www.sulpak.kz/g/holodilnik_bosch_kgn36vl15r"
  },
  {
    "city": "Алматы",
    "geometry": {
      "coordinates": [
        76.904493,
        43.232842
      ],
      "type": "Point"
    },
    "name": "Sulpak",
    "redirect_count": 1,
    "street": "ул. Джандосова, д. 34А",
    "tel": "+7 (727) 233–30–00",
    "url": "www.sulpak.kz",
    "url_real": "https://www.sulpak.kz/g/holodilnik_bosch_kgn36vl15r",
    "url_redirect": "https://www.sulpak.kz/g/holodilnik_bosch_kgn36vl15r"
  },
  {
    "city": "Алматы",
    "geometry": {
      "coordinates": [
        76.878678,
        43.232740
      ],
      "type": "Point"
    },
    "name": "Sulpak",
    "redirect_count": 1,
    "street": "ул. Сатпаева, д. 90 уг.ул Тлендиева-Руднева, ТЦ 'АДК'",
    "tel": "+7 (727) 233–30–00",
    "url": "www.sulpak.kz",
    "url_real": "https://www.sulpak.kz/g/holodilnik_bosch_kgn36vl15r",
    "url_redirect": "https://www.sulpak.kz/g/holodilnik_bosch_kgn36vl15r"
  },
  {
    "city": "Алматы",
    "geometry": {
      "coordinates": [
        76.853548,
        43.246373
      ],
      "type": "Point"
    },
    "name": "Sulpak",
    "redirect_count": 1,
    "street": "Төле би көшесі 285",
    "tel": "+7 (727) 233–30–00",
    "url": "www.sulpak.kz",
    "url_real": "https://www.sulpak.kz/g/holodilnik_bosch_kgn36vl15r",
    "url_redirect": "https://www.sulpak.kz/g/holodilnik_bosch_kgn36vl15r"
  },
  {
    "city": "Алматы",
    "geometry": {
      "coordinates": [
        76.817821,
        43.241913
      ],
      "type": "Point"
    },
    "name": "Sulpak",
    "redirect_count": 1,
    "street": "пр. Райымбека, д. 507 А ТРЦ 'Арзан'",
    "tel": "+7 (727) 233–30–00",
    "url": "www.sulpak.kz",
    "url_real": "https://www.sulpak.kz/g/holodilnik_bosch_kgn36vl15r",
    "url_redirect": "https://www.sulpak.kz/g/holodilnik_bosch_kgn36vl15r"
  },
  {
    "city": "Алматы",
    "geometry": {
      "coordinates": [
        76.849771,
        43.237896
      ],
      "type": "Point"
    },
    "name": "Sulpak",
    "redirect_count": 1,
    "street": "ул. Кабдолова, д. 1/4, ТРК 'Grand Park Almaty'",
    "tel": "+7 (727) 233–30–00",
    "url": "www.sulpak.kz",
    "url_real": "https://www.sulpak.kz/g/holodilnik_bosch_kgn36vl15r",
    "url_redirect": "https://www.sulpak.kz/g/holodilnik_bosch_kgn36vl15r"
  },
  {
    "city": "Алматы",
    "geometry": {
      "coordinates": [
        76.836479,
        43.229842
      ],
      "type": "Point"
    },
    "name": "Sulpak",
    "redirect_count": 1,
    "street": "мкр. Аксай 4, ул. Момышулы, д. 30 уг. ул.Жубанова",
    "tel": "+7 (727) 233–30–00",
    "url": "www.sulpak.kz",
    "url_real": "https://www.sulpak.kz/g/holodilnik_bosch_kgn36vl15r",
    "url_redirect": "https://www.sulpak.kz/g/holodilnik_bosch_kgn36vl15r"
  },
  {
    "city": "Алматы",
    "geometry": {
      "coordinates": [
        76.841738,
        43.213255
      ],
      "type": "Point"
    },
    "name": "Sulpak",
    "redirect_count": 1,
    "street": "мкр. Мамыр-1, ул. Момышулы, д. 8А ТРЦ 'Спутник'",
    "tel": "+7 (727) 233–30–00",
    "url": "www.sulpak.kz",
    "url_real": "https://www.sulpak.kz/g/holodilnik_bosch_kgn36vl15r",
    "url_redirect": "https://www.sulpak.kz/g/holodilnik_bosch_kgn36vl15r"
  },
  {
    "city": "Алматы",
    "geometry": {
      "coordinates": [
        76.928213,
        43.218076
      ],
      "type": "Point"
    },
    "name": "Sulpak",
    "redirect_count": 1,
    "street": "пр. Аль-Фараби, д. 77/8 ТЦ 'Esentai Mall'",
    "tel": "+7 (727) 233–30–00",
    "url": "www.sulpak.kz",
    "url_real": "https://www.sulpak.kz/g/holodilnik_bosch_kgn36vl15r",
    "url_redirect": "https://www.sulpak.kz/g/holodilnik_bosch_kgn36vl15r"
  },
  {
    "city": "Алматы",
    "geometry": {
      "coordinates": [
        76.928213,
        43.218076
      ],
      "type": "Point"
    },
    "name": "Sulpak",
    "redirect_count": 1,
    "street": "пр. Аль-Фараби, д. 77/8 ТЦ 'Esentai Mall'",
    "tel": "+7 (727) 233–30–00",
    "url": "www.sulpak.kz",
    "url_real": "https://www.sulpak.kz/g/holodilnik_bosch_kgn36vl15r",
    "url_redirect": "https://www.sulpak.kz/g/holodilnik_bosch_kgn36vl15r"
  },
  {
    "city": "Алматы",
    "geometry": {
      "coordinates": [
        76.954433,
        43.335094
      ],
      "type": "Point"
    },
    "name": "Технодом",
    "redirect_count": 1,
    "street": "ул. Рихарда Зорге,18",
    "tel": "8 (727) 356 3077",
    "url": "www.technodom.kz",
    "url_real": "https://www.technodom.kz/catalog/kholodilniki/p/56479",
    "url_redirect": "https://www.technodom.kz/catalog/kholodilniki/p/56479"
  },
  {
    "city": "Алматы",
    "geometry": {
      "coordinates": [
        76.917408,
        43.320276
      ],
      "type": "Point"
    },
    "name": "Технодом",
    "redirect_count": 1,
    "street": "мкр. Айнабулак 338, Мағжан Жұмабай көшесі 338",
    "tel": "8 (727) 356 3077",
    "url": "www.technodom.kz",
    "url_real": "https://www.technodom.kz/catalog/kholodilniki/p/56479",
    "url_redirect": "https://www.technodom.kz/catalog/kholodilniki/p/56479"
  },
  {
    "city": "Алматы",
    "geometry": {
      "coordinates": [
        76.941398,
        43.270491
      ],
      "type": "Point"
    },
    "name": "Технодом",
    "redirect_count": 1,
    "street": "пр. Райымбека 147/127",
    "tel": "8 (727) 356 3077",
    "url": "www.technodom.kz",
    "url_real": "https://www.technodom.kz/catalog/kholodilniki/p/56479",
    "url_redirect": "https://www.technodom.kz/catalog/kholodilniki/p/56479"
  },
  {
    "city": "Алматы",
    "geometry": {
      "coordinates": [
        76.929375,
        43.263755
      ],
      "type": "Point"
    },
    "name": "Технодом",
    "redirect_count": 1,
    "street": "трц 'MEGA Park' ул, Макатаева127",
    "tel": "8 (727) 356 3077",
    "url": "www.technodom.kz",
    "url_real": "https://www.technodom.kz/catalog/kholodilniki/p/56479",
    "url_redirect": "https://www.technodom.kz/catalog/kholodilniki/p/56479"
  },
  {
    "city": "Алматы",
    "geometry": {
      "coordinates": [
        76.936111,
        43.256760
      ],
      "type": "Point"
    },
    "name": "Технодом",
    "redirect_count": 1,
    "street": "Наурызбай батыр көшесі 49/61",
    "tel": "8 (727) 356 3077",
    "url": "www.technodom.kz",
    "url_real": "https://www.technodom.kz/catalog/kholodilniki/p/56479",
    "url_redirect": "https://www.technodom.kz/catalog/kholodilniki/p/56479"
  },
  {
    "city": "Алматы",
    "geometry": {
      "coordinates": [
        76.946404,
        43.255522
      ],
      "type": "Point"
    },
    "name": "Технодом",
    "redirect_count": 1,
    "street": "Панфилов көшесі 102",
    "tel": "8 (727) 356 3077",
    "url": "www.technodom.kz",
    "url_real": "https://www.technodom.kz/catalog/kholodilniki/p/56479",
    "url_redirect": "https://www.technodom.kz/catalog/kholodilniki/p/56479"
  },
  {
    "city": "Алматы",
    "geometry": {
      "coordinates": [
        76.955202,
        43.240419
      ],
      "type": "Point"
    },
    "name": "Технодом",
    "redirect_count": 1,
    "street": "ул. имени Валиханова 170",
    "tel": "8 (727) 356 3077",
    "url": "www.technodom.kz",
    "url_real": "https://www.technodom.kz/catalog/kholodilniki/p/56479",
    "url_redirect": "https://www.technodom.kz/catalog/kholodilniki/p/56479"
  },
  {
    "city": "Алматы",
    "geometry": {
      "coordinates": [
        76.924565,
        43.240289
      ],
      "type": "Point"
    },
    "name": "Технодом",
    "redirect_count": 1,
    "street": "пр. Абая 44а",
    "tel": "8 (727) 356 3077",
    "url": "www.technodom.kz",
    "url_real": "https://www.technodom.kz/catalog/kholodilniki/p/56479",
    "url_redirect": "https://www.technodom.kz/catalog/kholodilniki/p/56479"
  },
  {
    "city": "Алматы",
    "geometry": {
      "coordinates": [
        76.893116,
        43.240455
      ],
      "type": "Point"
    },
    "name": "Технодом",
    "redirect_count": 1,
    "street": "Құрманғазы көшесі 178",
    "tel": "8 (727) 356 3077",
    "url": "www.technodom.kz",
    "url_real": "https://www.technodom.kz/catalog/kholodilniki/p/56479",
    "url_redirect": "https://www.technodom.kz/catalog/kholodilniki/p/56479"
  },
  {
    "city": "Алматы",
    "geometry": {
      "coordinates": [
        76.891841,
        43.201852
      ],
      "type": "Point"
    },
    "name": "Технодом",
    "redirect_count": 1,
    "street": "Розыбакиев көшесі 247a",
    "tel": "8 (727) 356 3077",
    "url": "www.technodom.kz",
    "url_real": "https://www.technodom.kz/catalog/kholodilniki/p/56479",
    "url_redirect": "https://www.technodom.kz/catalog/kholodilniki/p/56479"
  },
  {
    "city": "Алматы",
    "geometry": {
      "coordinates": [
        76.891841,
        43.201852
      ],
      "type": "Point"
    },
    "name": "Технодом",
    "redirect_count": 1,
    "street": "Розыбакиев көшесі 247a",
    "tel": "8 (727) 356 3077",
    "url": "www.technodom.kz",
    "url_real": "https://www.technodom.kz/catalog/kholodilniki/p/56479",
    "url_redirect": "https://www.technodom.kz/catalog/kholodilniki/p/56479"
  },
  {
    "city": "Алматы",
    "geometry": {
      "coordinates": [
        76.835603,
        43.244377
      ],
      "type": "Point"
    },
    "name": "Технодом",
    "redirect_count": 1,
    "street": "Райымбека проспект, 514а",
    "tel": "8 (727) 356 3077",
    "url": "www.technodom.kz",
    "url_real": "https://www.technodom.kz/catalog/kholodilniki/p/56479",
    "url_redirect": "https://www.technodom.kz/catalog/kholodilniki/p/56479"
  },
  {
    "city": "Алматы",
    "geometry": {
      "coordinates": [
        76.845497,
        43.237336
      ],
      "type": "Point"
    },
    "name": "Технодом",
    "redirect_count": 1,
    "street": "ARMADA, Алматы, Кабдолова, 1/8",
    "tel": "8 (727) 356 3077",
    "url": "www.technodom.kz",
    "url_real": "https://www.technodom.kz/catalog/kholodilniki/p/56479",
    "url_redirect": "https://www.technodom.kz/catalog/kholodilniki/p/56479"
  },
  {
    "city": "Алматы",
    "geometry": {
      "coordinates": [
        76.776857,
        43.233281
      ],
      "type": "Point"
    },
    "name": "Технодом",
    "redirect_count": 1,
    "street": "Молл Апорт,Алматы, Ташкентский тракт, 17к",
    "tel": "8 (727) 356 3077",
    "url": "www.technodom.kz",
    "url_real": "https://www.technodom.kz/catalog/kholodilniki/p/56479",
    "url_redirect": "https://www.technodom.kz/catalog/kholodilniki/p/56479"
  }
]